[
   {
      "id":1,
      "name":"서브웨이",
      "lat":36.371227,
      "lng":127.362324,
      "address":"대전 유성구 대학로 291 정문술빌딩 1층",
      "menu":"양식",
      "direction":"간단하게 끼니를 해결할 수 있는 서브웨이",
      "phone": "042-863-7001"
   },
   {
      "id":2,
      "name":"카이마루",
      "lat":36.373738,
      "lng":127.359313,
      "address":"대전광역시 유성구 대학로 291 KAIST 카이마루 학생식당 (N11)",
      "menu":"한식",
      "direction":"여러가지 음식을 먹을 수 있는 푸드코트 형식의 식당",
      "phone": null
   },
   {
      "id":3,
      "name":"교수회관",
      "lat":36.374563,
      "lng":127.364785,
      "address":"대전광역시 유성구 대학로 291 KAIST N6 - 교수식당",
      "menu":"한식",
      "direction":"질 좋은 한식 한끼를 저렴하게 먹을 수 있는 식당",
      "phone": null
   },
   {
      "id":4,
      "name":"하레",
      "lat":36.362803,
      "lng":127.357792,
      "address":"대전광역시 유성구 어은로48번길 12",
      "menu":"일식",
      "direction":"어은동의 유명한 돈까스 맛집",
      "phone": "070-8126-4139"
   },
   {
      "id":5,
      "name":"잇마이타이",
      "lat":36.363634,
      "lng":127.358909,
      "address":"대전광역시 유성구 어은로58번길 62",
      "menu":"기타",
      "direction":"태국식 쌀국수, 볶음밥을 먹을 수 있는 맛집",
      "phone": "042-335-5466"
   },
   {
      "id":6,
      "name":"더큰도시락",
      "lat":36.366937,
      "lng":127.360471,
      "address":"대전광역시 유성구 어은동 한국과학기술원 제1학생회관 2층",
      "menu":"한식",
      "direction":"간단하면서도 맛있는 도시락을 즐길 수 있는 더큰 도시락",
      "phone": "042-350-0875"
   },
   {
      "id":7,
      "name":"태울관",
      "lat":36.373059,
      "lng":127.360019,
      "address":"대전광역시 유성구 대학로 291 KAIST 태울관",
      "menu":"한식",
      "direction":"백종원 선생님의 제순식당, 인생설렁탕, 역전우동을 한 번에 즐길 수 있는 퀄리티 높은 푸드코트",
      "phone": "042-350-0398"
   },
   {
      "id":8,
      "name":"풀빛마루",
      "lat":36.374153,
      "lng":127.359795,
      "address":"대전광역시 유성구 대학로 291 KAIST 풀빛마루",
      "menu":"기타",
      "direction":"할랄 음식을 판매하는 카이스트의 풀빛마루, 간단하게 점식식사를 해결할 수 있는 식당",
      "phone": "042-350-0365"
   },
   {
      "id":9,
      "name":"대덕동네피자",
      "lat":36.367352,
      "lng":127.360806,
      "address":"대전광역시 유성구 대학로 291 대덕동네피자",
      "menu":"양식",
      "direction":"맛있는 웰메이드 피자를 맛볼 수 있는 대덕동네피자! 조각 단위로 판매해서 혼자 먹기에도 안성맞춤!!",
      "phone": "042-350-4787"
   },
   {
      "id":10,
      "name":"마쯔미라멘",
      "lat":36.363121,
      "lng":127.358733,
      "address":"대전광역시 유성구 어은동 번지 지하 114-9 1층",
      "menu":"일식",
      "direction":"일본장인에게 직접 배운 자가제면, 해산물육수와 닭육수의 조합으로 만든 일식 라멘",
      "phone": "070-4100-0953"
   },
   {
      "id":11,
      "name":"헤이마오차이",
      "lat":36.363483,
      "lng":127.35829,
      "address":"대전광역시 유성구 어은로42번길 7 1 층",
      "menu":"중식",
      "direction":"깔끔하고 감칠맛나는 육수에 사천 특유의 맵고 얼큰한 향신료의 맛이 한국인의 입맛을 사로 잡은 마라탕",
      "phone": "0507-1408-6869"
   },
   {
      "id":12,
      "name":"오마이동",
      "lat":36.363446,
      "lng":127.358806,
      "address":"대전광역시 유성구 어은동 112-10",
      "menu":"중식",
      "direction":"학교 다니다 중식 생각나면 꼭 한 번 가는 그 집",
      "phone": "042-863-5551"
   },
   {
      "id":13,
      "name":"폼프리츠",
      "lat":36.363333,
      "lng":127.358816,
      "address":"대전광역시 유성구 어은동 112-9",
      "menu":"양식",
      "direction":"분위기 있는 가게에서 맛있는 소스에 찍어먹는 감자튀김 그리고 시원한 맥주",
      "phone": "042-862-3678"
   },
   {
      "id":14,
      "name":"착한 감자탕",
      "lat":36.363159,
      "lng":127.358272,
      "address":"대전광역시 유성구 어은동 어은로48번길 24",
      "menu":"한식",
      "direction":"괜히 대전 곳곳에 있는 감자탕 집이 아닙니다",
      "phone": "042-862-3628"
   },
   {
      "id":15,
      "name":"오늘뭐먹지?",
      "lat":36.363368,
      "lng":127.358282,
      "address":"대전광역시 유성구 어은로48번길 25",
      "menu":"한식",
      "direction":"오늘 뭐 먹을지 고민된다면 밥과 국, 반찬 및 철판볶음류를 무한리필로 먹을 수 있는 이곳으로",
      "phone": "042-867-2221"
   },
   {
      "id":16,
      "name":"무어",
      "lat":36.363713,
      "lng":127.357631,
      "address":"대전광역시 유성구 어은동 번지 1층 111-4",
      "menu":"양식",
      "direction":"세련된 인테리어, 모던한 분위기의 캐쥬얼 다이닝 레스토랑!",
      "phone": "042-864-3533"
   },
   {
      "id":17,
      "name":"어랑족",
      "lat":36.36352,
      "lng":127.357206,
      "address":"대전광역시 유성구 어은로58번길 12",
      "menu":"한식",
      "direction":"생선구이를 시켰는데 푸짐한 한 상 받아볼 수 있는 곳",
      "phone": "042-862-8889"
   },
   {
      "id":18,
      "name":"골목",
      "lat":36.362973,
      "lng":127.356249,
      "address":"대전광역시 유성구 어은동 108-3",
      "menu":"한식",
      "direction":"단백질 채우고 싶을 때 맛있게 먹을 수 있는 숙성 돼지고기 구이집",
      "phone": "042-861-9371"
   },
   {
      "id":19,
      "name":"베리 신주쿠",
      "lat":36.363036,
      "lng":127.357791,
      "address":"대전광역시 유성구 어은동 113-16",
      "menu":"일식",
      "direction":"푸짐한 돈까스에 커리, 맛있는 야끼우동과 덮밥",
      "phone": "042-863-7339"
   },
   {
      "id":20,
      "name":"대학생치킨",
      "lat":36.363719,
      "lng":127.357951,
      "address":"대전광역시 유성구 어은로52번길 15 1F",
      "menu":"기타",
      "direction":"대전 대학생이라면 안먹어 봤을리 없는 치킨",
      "phone": "0507-1460-0003"
   },
   {
      "id":21,
      "name":"궁칼국수",
      "lat":36.363389,
      "lng":127.356965,
      "address":"대전광역시 유성구 어은동 번지 2층 110-1",
      "menu":"한식",
      "direction":"면을 직접 밀어서 만든 칼국수라 더 맛있는 집",
      "phone": "042-861-1551"
   }
]